,City,Cloudiness,Country,Date,Humidity,Lat,Lng,Max Temp,Wind Speed
0,Punta Arenas,75,CL,1547715600,61,-53.16,-70.91,9.0,10.3
1,Madimba,40,CM,1547712000,69,4.42,9.93,28.0,2.1
2,Okhotsk,20,RU,1547716558,100,59.36,143.24,-22.82,3.49
3,Bluff,0,AU,1547716558,31,-23.58,149.07,31.31,4.81
4,Tasiilaq,92,GL,1547715000,72,65.61,-37.64,-8.0,11.3
5,Langarud,90,IR,1547715600,100,37.2,50.15,10.0,4.1
6,Rikitea,68,PF,1547716559,96,-23.12,-134.97,26.99,4.36
7,Pevek,44,RU,1547716559,88,69.7,170.27,-21.32,5.51
8,Yurginskoye,44,RU,1547716560,88,56.82,67.39,-8.72,3.91
9,Nanortalik,0,GL,1547716560,92,60.14,-45.24,-4.02,3.74
10,Sawankhalok,20,TH,1547712000,52,17.31,99.83,31.0,1.5
11,Maraa,76,BR,1547716320,99,-1.83,-65.37,22.44,1.91
12,Albany,1,US,1547715240,48,42.65,-73.75,-10.6,4.1
13,Cape Town,0,ZA,1547715600,57,-33.93,18.42,24.0,7.2
14,Qaanaaq,8,GL,1547716562,92,77.48,-69.36,-26.77,3.51
15,Mataura,100,NZ,1547716562,91,-46.19,168.86,12.36,2.36
16,Bethel,1,US,1547715360,84,60.79,-161.76,-6.7,4.1
17,Leh,8,IN,1547716563,89,34.16,77.58,-15.47,0.66
18,Avarua,20,CK,1547715600,88,-21.21,-159.78,26.0,2.6
19,Marzuq,0,YE,1547716564,16,14.4,46.47,28.74,1.26
20,Alenquer,20,BR,1547715600,100,-1.95,-54.74,24.0,4.1
21,Progreso,40,UY,1547715600,77,-34.68,-56.22,21.0,7.7
22,Toledo,40,PH,1547712000,66,10.38,123.64,29.0,10.8
23,Port Hardy,75,CA,1547712000,70,50.7,-127.42,7.0,6.2
24,Olga,90,US,1547716260,96,34.11,-118.17,17.2,3.1
25,Banyo,0,CM,1547716566,20,6.75,11.81,28.06,0.56
26,Puerto Escondido,36,MX,1547716566,100,15.86,-97.07,27.61,5.09
27,Abong Mbang,0,CM,1547716567,46,3.98,13.18,27.81,1.34
28,Butaritari,68,KI,1547716567,100,3.07,172.79,28.84,7.19
29,Yellowknife,5,CA,1547712000,66,62.45,-114.38,-35.0,4.1
30,Bredasdorp,20,ZA,1547715600,51,-34.53,20.04,30.0,2.6
31,Barrow,88,AR,1547716568,65,-38.31,-60.23,15.29,5.64
32,Fairbanks,1,US,1547715480,82,64.84,-147.72,-21.1,1.66
33,Anadyr,40,RU,1547712000,76,64.73,177.51,-22.0,7.0
34,Upington,0,ZA,1547715600,17,-28.46,21.24,32.0,2.6
35,Los Llanos de Aridane,40,ES,1547713800,72,28.66,-17.92,16.0,3.6
36,Kapaa,90,US,1547715360,70,22.08,-159.32,24.4,5.7
37,Saskylakh,64,RU,1547716570,83,71.97,114.09,-28.44,3.16
38,Thompson,5,CA,1547712000,74,55.74,-97.86,-32.0,3.6
39,Ushuaia,75,AR,1547715600,75,-54.81,-68.31,6.0,5.56
40,El Retorno,44,CO,1547716571,80,2.33,-72.63,24.21,1.01
41,Manta,0,RO,1547716571,77,45.1,24.1,-0.57,1.21
42,Port Alfred,80,ZA,1547716572,83,-33.59,26.89,24.14,8.24
43,Atuona,88,PF,1547716572,100,-9.8,-139.03,26.34,8.69
44,Hobart,40,AU,1547713800,64,-42.88,147.33,21.0,6.2
45,Hitachi,20,JP,1547712000,39,36.6,140.65,8.0,3.1
46,Arraial do Cabo,0,BR,1547715600,94,-22.97,-42.02,24.0,2.6
47,Hambantota,20,LK,1547712600,62,6.12,81.12,31.0,6.7
48,Devrek,75,TR,1547715000,86,41.22,31.96,4.0,2.1
49,Aranos,0,NA,1547716574,21,-24.14,19.11,33.79,0.81
50,Sao Benedito do Rio Preto,20,BR,1547716574,95,-3.33,-43.53,21.21,1.16
51,Longyearbyen,40,NO,1547715000,71,78.22,15.63,-14.0,7.7
52,Cidreira,92,BR,1547716575,94,-30.17,-50.22,24.36,1.46
53,Ponta do Sol,8,BR,1547716576,92,-20.63,-46.0,17.31,1.06
54,Kamsack,90,CA,1547712000,77,51.56,-101.9,-19.0,3.6
55,Fallon,90,US,1547715360,95,46.84,-105.12,-5.0,3.1
56,Ciudad Bolivar,56,VE,1547716577,74,8.12,-63.55,25.21,5.26
57,Nikolskoye,90,RU,1547713800,92,59.7,30.79,-5.0,6.0
58,Yulara,80,AU,1547712000,9,-25.24,130.99,44.0,5.1
59,Tzaneen,0,ZA,1547713800,60,-23.83,30.16,23.0,3.1
60,Cabo San Lucas,44,MX,1547716578,100,22.89,-109.91,21.96,3.69
61,Mazatlan,40,MX,1547714700,93,23.22,-106.42,16.0,1.11
62,Coahuayana,24,MX,1547716579,84,18.62,-100.35,13.96,0.71
63,Sokoni,68,CD,1547716580,88,-12.89,28.78,23.39,2.11
64,Kursavka,12,RU,1547713800,43,44.46,42.51,2.0,3.0
65,Saldanha,92,PT,1547716580,94,41.42,-6.55,0.89,1.26
66,Severo-Kurilsk,56,RU,1547716580,100,50.68,156.12,-5.67,1.39
67,Chokurdakh,8,RU,1547716581,0,70.62,147.9,-47.32,1.29
68,Hilo,75,US,1547715180,87,19.71,-155.08,20.0,2.1
69,Vaini,0,IN,1547712000,23,15.34,74.49,30.0,5.1
70,Requena,75,ES,1547713800,87,39.49,-1.1,6.0,2.6
71,Aklavik,75,CA,1547712000,70,68.22,-135.01,-21.0,5.1
72,Shasta Lake,90,US,1547715300,100,40.68,-122.36,12.2,2.69
73,Novo Aripuana,32,BR,1547716320,99,-5.12,-60.38,23.14,1.11
74,Airai,88,TL,1547716583,93,-8.93,125.41,22.64,0.81
75,Indramayu,76,ID,1547716583,58,-4.05,103.78,28.11,0.16
76,Busselton,0,AU,1547716583,93,-33.64,115.35,21.64,7.29
77,Petropavlovsk-Kamchatskiy,40,RU,1547715600,62,53.05,158.65,-6.0,7.0
78,Bani,8,PH,1547716584,62,15.89,120.27,28.31,4.49
79,Yar-Sale,88,RU,1547716584,95,66.83,70.83,-11.44,9.86
80,Kaitangata,92,NZ,1547716584,100,-46.28,169.85,11.24,2.56
81,Haines Junction,80,CA,1547716585,81,60.75,-137.51,-12.77,0.84
82,Muroto,20,JP,1547715600,36,33.37,134.14,8.0,4.1
83,Muscat,0,OM,1547715000,69,23.6,58.55,26.0,4.6
84,San Pedro,64,AR,1547716587,87,-33.68,-59.66,19.94,8.81
85,Prado,88,BR,1547716321,96,-17.34,-39.22,27.04,5.64
86,Chuy,0,UY,1547716351,94,-33.69,-53.46,18.24,2.96
87,Castro,0,CL,1547715600,87,-42.48,-73.76,6.0,2.1
88,Rapid City,90,US,1547715360,100,44.08,-103.23,-3.9,1.39
89,Tuktoyaktuk,0,CA,1547716589,100,69.44,-133.03,-19.19,10.69
90,Provideniya,92,RU,1547716589,100,64.42,-173.23,-8.19,7.69
91,Abha,0,SA,1547715600,37,18.22,42.5,25.0,8.7
92,Georgetown,20,GY,1547712000,94,6.8,-58.16,23.0,2.26
93,Ahipara,0,NZ,1547716590,90,-35.17,173.16,18.46,5.16
94,Kidal,0,ML,1547716591,22,18.44,1.41,20.31,2.11
95,Puerto Ayora,92,EC,1547716591,100,-0.74,-90.35,23.21,1.74
96,Iqaluit,40,CA,1547712000,75,63.75,-68.52,-28.0,2.6
97,Mar del Plata,32,AR,1547716592,100,-46.43,-67.52,8.14,1.96
98,Esperance,75,TT,1547715600,94,10.24,-61.45,24.0,3.1
99,Tinqueux,90,FR,1547713800,81,49.25,3.99,6.0,6.2
100,Honiton,20,GB,1547715000,80,50.8,-3.19,4.0,5.1
101,Adrar,0,DZ,1547712000,37,27.87,-0.29,3.0,3.1
102,Samarai,8,PG,1547716594,100,-10.62,150.67,28.14,4.06
103,Thakurgaon,0,BD,1547716594,55,26.02,88.47,25.56,1.89
104,Saint-Philippe,1,CA,1547714100,75,45.36,-73.48,-18.0,2.96
105,Mount Isa,40,AU,1547713800,16,-20.73,139.49,40.0,7.7
106,Praya,75,ID,1547713800,94,-8.71,116.27,27.0,2.59
107,Brae,20,GB,1547715000,60,60.4,-1.35,4.0,11.3
108,Jamestown,80,AU,1547716596,20,-33.21,138.6,35.89,3.96
109,Puerto del Rosario,20,ES,1547713800,67,28.5,-13.86,16.0,4.6
110,Shubarkuduk,92,KZ,1547716597,90,49.15,56.49,-0.27,6.06
111,Sorland,90,NO,1547715000,100,67.67,12.69,-1.0,1.0
112,Hirara,75,JP,1547715600,77,24.8,125.28,18.0,6.2
113,Wamba,12,CD,1547716597,77,2.14,27.99,26.71,1.34
114,Fuerte Olimpo,0,BR,1547716598,68,-21.04,-57.87,26.86,3.14
115,Camacha,40,PT,1547713800,72,33.08,-16.33,15.0,8.2
116,Sobolevo,92,RU,1547716598,93,54.43,31.9,-1.97,9.44
117,Coquimbo,20,CL,1547715600,87,-29.95,-71.34,14.0,1.5
118,San Cristobal,90,EC,1547715600,100,-0.39,-78.55,12.0,1.5
119,Flin Flon,0,CA,1547716600,66,54.77,-101.88,-26.14,3.29
120,East London,75,ZA,1547715600,83,-33.02,27.91,24.0,8.2
121,Pecos,1,US,1547715300,60,31.42,-103.49,7.3,1.5
122,Santa Rosa,92,AR,1547716601,52,-36.62,-64.29,17.54,6.54
123,Biak,92,ID,1547716602,75,-0.91,122.88,29.36,1.46
124,Maragogi,88,BR,1547716604,100,-9.01,-35.22,24.46,1.24
125,Majene,92,ID,1547716604,92,-3.54,118.97,29.09,6.76
126,Saint-Francois,90,FR,1547713800,87,46.42,3.91,7.0,3.6
127,Obihiro,75,JP,1547715600,44,42.92,143.2,-8.0,4.6
128,Mbini,20,GQ,1547712000,83,1.58,9.62,29.0,3.1
129,Pringsewu,56,ID,1547716605,78,-5.36,104.98,28.86,1.49
130,Faanui,20,PF,1547716606,97,-16.48,-151.75,29.31,5.61
131,The Pas,1,CA,1547712000,76,53.82,-101.24,-24.0,5.1
132,Vrangel,0,RU,1547716606,100,42.73,133.08,-9.02,13.47
133,Hermanus,0,ZA,1547716607,54,-34.42,19.24,27.29,1.59
134,Pacific Grove,90,US,1547715300,74,36.62,-121.92,14.4,2.6
135,Maningrida,24,AU,1547716607,72,-12.05,134.23,30.61,5.31
136,Port-Gentil,90,GA,1547715600,88,-0.72,8.78,27.0,1.5
137,Guerrero Negro,76,MX,1547716608,100,27.97,-114.04,15.14,3.29
138,Abilene,20,US,1547715360,65,32.45,-99.73,10.1,2.6
139,Jinchang,44,CN,1547716608,81,38.52,102.19,-4.27,0.71
140,Dudinka,64,RU,1547716609,78,69.41,86.18,-19.92,5.71
141,Noumea,20,NC,1547715600,60,-22.28,166.46,24.0,5.7
142,Bathsheba,75,BB,1547715600,73,13.22,-59.52,25.0,8.2
143,Skagen,24,SE,1547715000,92,58.6,13.44,-4.0,2.1
144,Yuzhnyy,64,RU,1547716610,88,53.54,39.45,-5.14,6.01
145,Lebu,0,ET,1547712000,22,8.96,38.73,21.0,4.1
146,Lompoc,90,US,1547715900,93,34.64,-120.46,16.7,8.2
147,Inuvik,75,CA,1547712000,70,68.36,-133.71,-21.0,5.1
148,Mahebourg,75,MU,1547715600,74,-20.41,57.7,30.0,6.7
149,Soyo,75,AO,1547712000,83,-6.13,12.37,28.0,2.6
150,Manggar,80,ID,1547716612,100,-2.88,108.27,25.39,1.74
151,Hithadhoo,80,MV,1547716612,100,-0.6,73.08,25.79,3.49
152,Khatanga,80,RU,1547716613,81,71.98,102.47,-28.12,2.94
153,Oyama,20,JP,1547712000,39,36.31,139.8,8.0,3.1
154,Billings,40,US,1547715180,80,45.79,-108.5,-5.0,1.5
155,Bubaque,0,GW,1547716613,100,11.28,-15.83,24.81,5.66
156,Pedasi,0,PA,1547716614,96,7.53,-80.03,26.04,11.02
157,Ilam,90,IR,1547715600,98,33.64,46.42,1.0,3.1
158,Teya,5,MX,1547714700,88,21.05,-89.07,17.0,2.6
159,New Norfolk,40,AU,1547713800,64,-42.78,147.06,21.0,6.2
160,Kulhudhuffushi,44,MV,1547716615,100,6.62,73.07,27.11,2.71
161,Namatanai,56,PG,1547716615,100,-3.66,152.44,28.59,2.86
162,Fortuna,75,ES,1547713800,57,38.18,-1.13,11.0,4.6
163,Nocupetaro,88,MX,1547716616,84,19.05,-101.15,12.21,0.84
164,Dharur,0,IN,1547716617,38,18.82,76.11,29.79,1.69
165,Ixtapa,75,MX,1547714940,100,20.71,-105.21,22.0,1.04
166,Talnakh,68,RU,1547716617,77,69.49,88.39,-20.04,2.79
167,Leninsk,90,RU,1547715600,92,48.69,45.2,-7.0,4.0
168,Victoria,75,BN,1547713800,74,5.28,115.24,29.0,5.1
169,Turukhansk,80,RU,1547716619,80,65.8,87.96,-16.94,2.24
170,Touros,40,BR,1547712000,100,-5.2,-35.46,24.0,1.5
171,Klaksvik,80,FO,1547715000,100,62.23,-6.59,0.0,5.7
172,Svetlogorsk,90,RU,1547715600,92,53.14,59.15,-11.0,3.0
173,Skibbereen,20,IE,1547715600,86,51.55,-9.27,1.0,3.6
174,Sitka,20,US,1547716620,91,37.17,-99.65,-1.79,2.86
175,Laguna,12,MX,1547716621,89,27.52,-110.01,12.09,0.99
176,Snezhnogorsk,75,RU,1547715600,85,69.19,33.23,-10.0,1.11
177,Caravelas,44,BR,1547716621,100,-17.73,-39.27,27.14,5.34
178,Luderitz,0,NA,1547716621,83,-26.65,15.16,18.54,3.04
179,Tuttlingen,75,DE,1547715000,70,47.98,8.82,7.0,5.7
180,Kudat,75,MY,1547712000,78,6.89,116.84,28.0,5.7
181,Kavaratti,0,IN,1547716622,100,10.57,72.64,27.69,3.91
182,Lorengau,68,PG,1547716623,96,-2.02,147.27,29.09,5.66
183,Karatau,0,KZ,1547716623,64,43.18,70.46,9.69,2.49
184,San Borja,68,BO,1547716623,97,-14.86,-66.75,21.81,1.26
185,Port Blair,0,IN,1547716624,100,11.67,92.75,27.99,6.54
186,Rio Claro,0,BR,1547712000,88,-22.41,-47.56,20.0,1.5
187,Codrington,0,AU,1547712000,51,-28.95,153.24,29.0,7.7
188,Ust-Maya,8,RU,1547716625,0,60.42,134.54,-42.29,1.21
189,Arlit,0,NE,1547716625,71,18.74,7.39,17.61,2.04
190,Fleetwood,1,US,1547715360,62,40.45,-75.82,0.0,2.1
191,College,1,US,1547715480,82,64.86,-147.8,-16.7,1.66
192,Lithakia,20,GR,1547715000,71,37.72,20.83,13.0,3.19
193,Shahrud,80,IR,1547716626,53,36.42,54.97,12.86,3.14
194,Milkovo,0,BG,1547715000,84,41.53,24.68,8.0,0.36
195,Alice Springs,68,AU,1547713800,18,-23.7,133.88,39.0,4.6
196,Hualmay,80,PE,1547716627,100,-11.1,-77.61,18.64,1.01
197,Port Lincoln,100,AU,1547716627,62,-34.72,135.86,26.56,2.14
198,Sol-Iletsk,92,RU,1547716628,95,51.16,55.0,-2.12,2.26
199,Tabou,64,CI,1547716340,100,4.42,-7.36,27.04,5.54
200,Tuatapere,100,NZ,1547716628,100,-46.13,167.69,12.29,2.19
201,Katherine,20,AU,1547713800,47,-14.47,132.26,35.0,3.6
202,Bodden Town,36,KY,1547716629,100,19.28,-81.25,25.94,6.74
203,Vung Tau,0,VN,1547716629,86,10.35,107.08,27.99,10.47
204,Buenavista,80,CO,1547716630,96,4.36,-75.74,11.94,0.71
205,Sabang,12,PH,1547716630,82,13.72,123.58,25.96,4.64
206,Padang,20,ID,1547712000,74,-0.92,100.36,30.0,2.1
207,Seminole,1,US,1547715300,56,32.72,-102.64,8.6,5.1
208,Kysyl-Syr,56,RU,1547716631,51,63.9,122.77,-34.92,3.24
209,Byron Bay,0,AU,1547713800,65,-28.65,153.62,29.0,5.7
210,Sampit,44,ID,1547716632,88,-2.54,112.95,29.14,1.96
211,Ilulissat,12,GL,1547715000,60,69.22,-51.1,-13.0,4.1
212,Bonavista,56,CA,1547716498,100,48.65,-53.11,-1.64,7.44
213,San Angelo,1,US,1547716020,92,31.46,-100.44,5.6,3.1
214,Glyadyanskoye,80,RU,1547716633,91,54.91,65.09,-9.17,6.31
215,Mehamn,40,NO,1547715000,85,71.03,27.85,-4.0,4.6
216,Kaeo,0,NZ,1547716634,73,-35.1,173.78,18.74,5.11
217,Agadez,0,NE,1547712000,18,16.97,7.99,18.0,8.2
218,Ossora,56,RU,1547716634,100,59.24,163.07,-27.94,2.74
219,Sept-Iles,75,CA,1547712000,54,50.2,-66.38,-16.0,6.2
220,Gouyave,20,GD,1547712000,88,12.16,-61.73,25.0,7.2
221,Bambous Virieux,75,MU,1547715600,74,-20.34,57.76,30.0,6.7
222,Port Elizabeth,40,US,1547715360,63,39.31,-74.98,3.3,2.6
223,Darhan,24,MN,1547716636,60,49.49,105.92,-11.97,1.34
224,Chitral,0,PK,1547716636,87,35.85,71.79,-12.12,0.46
225,Jalu,24,LY,1547716531,50,29.03,21.55,13.29,3.14
226,Antofagasta,0,CL,1547715600,77,-23.65,-70.4,17.0,0.5
227,Lloydminster,90,CA,1547714940,70,53.28,-110.01,-19.0,4.6
228,Velykoploske,0,UA,1547715600,69,47.02,29.68,1.0,4.1
229,Torbay,90,CA,1547714820,92,47.66,-52.73,-1.0,5.7
230,Charyshskoye,80,RU,1547716638,87,51.4,83.56,-7.12,1.34
231,Mayumba,88,GA,1547716639,97,-3.44,10.65,27.64,2.86
232,Grakhovo,90,RU,1547715600,73,56.05,51.96,-5.0,8.0
233,Narsaq,80,GL,1547715000,45,60.91,-46.05,-4.0,2.6
234,Pimentel,56,BR,1547716640,98,-3.7,-45.5,22.24,1.14
235,Benghazi,76,LY,1547716640,100,32.12,20.07,13.61,4.99
236,Margate,40,AU,1547713800,64,-43.03,147.26,21.0,6.2
237,Grindavik,75,IS,1547715600,86,63.84,-22.43,0.0,4.1
238,Ostrovnoy,80,RU,1547716641,90,68.05,39.51,-6.87,2.84
239,Cilegon,40,ID,1547713800,55,-6.02,106.05,31.0,8.7
240,Nuuk,20,GL,1547715000,85,64.17,-51.74,-9.0,2.1
241,Banda Aceh,64,ID,1547716642,63,5.56,95.32,30.44,2.36
242,Asyut,0,EG,1547712000,56,27.18,31.19,7.0,2.1
243,Goure,0,NE,1547716643,30,13.98,10.27,21.24,3.94
244,Kruisfontein,8,ZA,1547716643,76,-34.0,24.73,24.06,4.59
245,Kolosovka,24,RU,1547716643,86,56.47,73.61,-9.92,4.31
246,Geraldton,75,CA,1547712000,69,49.72,-86.95,-23.0,2.6
247,Itoman,75,JP,1547715600,63,26.12,127.67,17.0,9.8
248,Tura,24,IN,1547716644,66,25.52,90.21,22.79,1.39
249,Yinchuan,0,CN,1547716645,37,38.48,106.21,0.21,1.56
250,Marawi,76,PH,1547716645,85,8.0,124.29,22.84,1.26
251,Raver,0,IN,1547716646,43,21.25,76.04,29.61,1.71
252,Ojuelos de Jalisco,80,MX,1547716646,92,21.86,-101.59,6.94,1.26
253,Kavieng,56,PG,1547716646,100,-2.57,150.8,29.39,1.79
254,Palmer,1,US,1547715480,91,61.6,-149.11,-1.7,2.1
255,Aktanysh,56,RU,1547716647,94,55.72,54.06,-2.39,5.86
256,Tiksi,56,RU,1547716647,46,71.64,128.87,-33.67,1.71
257,Sao Joao da Barra,0,BR,1547715600,83,-21.64,-41.05,25.0,9.04
258,Norman Wells,75,CA,1547712000,55,65.28,-126.83,-14.0,11.3
259,Upernavik,44,GL,1547716648,100,72.79,-56.15,-17.07,5.19
260,Kastamonu,75,TR,1547715000,91,41.38,33.78,0.0,5.1
261,Sirjan,24,IR,1547716398,54,29.44,55.67,15.04,8.46
262,Sola,90,FI,1547715000,92,62.78,29.36,-12.0,2.1
263,Hamilton,75,BM,1547715300,77,32.3,-64.78,15.0,2.1
264,Kodiak,90,US,1547716260,100,39.95,-94.76,0.0,2.6
265,Lulea,0,SE,1547715000,76,65.58,22.15,-22.0,2.1
266,Isangel,100,VU,1547716650,100,-19.55,169.27,24.61,8.59
267,Ingham,64,AU,1547716650,93,-18.65,146.16,26.46,4.06
268,Bayan,0,MN,1547716651,43,47.25,107.54,-10.07,5.49
269,Pangnirtung,44,CA,1547716651,81,66.15,-65.72,-28.32,1.16
270,Hondo,90,US,1547715300,98,29.35,-99.14,14.4,4.1
271,Shitanjing,12,CN,1547716652,46,39.23,106.34,-1.72,1.04
272,Keetmanshoop,0,NA,1547712000,12,-26.57,18.15,29.0,4.1
273,Inhumas,20,BR,1547715600,94,-16.36,-49.5,21.0,1.5
274,Mazamari,76,PE,1547716652,98,-11.33,-74.53,17.34,0.39
275,Lavrentiya,80,RU,1547716653,100,65.58,-170.99,-8.47,1.21
276,Nusaybin,90,TR,1547715600,93,37.08,41.21,6.0,3.1
277,Nishihara,1,JP,1547715600,57,35.74,139.53,10.0,2.01
278,Shimoda,20,JP,1547715600,52,34.7,138.93,7.0,7.7
279,Caruaru,88,BR,1547716654,99,-8.28,-35.97,21.11,1.71
280,Vao,88,EE,1547716654,100,59.1,26.19,3.09,5.56
281,Altay,48,CN,1547716655,87,47.83,88.13,-9.94,1.24
282,Barranca,88,PE,1547716655,100,-10.75,-77.76,20.59,3.91
283,Ust-Kuyga,0,RU,1547716655,0,70.0,135.55,-52.77,1.24
284,Pauini,88,BR,1547716656,97,-7.71,-67.0,23.89,0.69
285,Bucerias,75,MX,1547714940,100,20.76,-105.33,22.0,3.84
286,Marrakesh,0,MA,1547713800,75,31.63,-7.99,6.0,1.0
287,Axim,12,GH,1547716657,92,4.87,-2.24,29.61,6.39
288,Anajatuba,44,BR,1547716657,100,-3.26,-44.62,22.86,1.06
289,Locri,5,IT,1547711700,53,38.24,16.26,10.0,1.0
290,Monywa,0,MM,1547716659,65,22.12,95.13,26.46,2.71
291,ChengDe,0,CN,1547716659,28,40.97,117.93,-2.52,1.36
292,Gizo,20,IL,1547715000,51,31.8,34.94,16.0,8.7
293,Carnarvon,0,ZA,1547716659,39,-30.97,22.13,27.49,1.89
294,Kelamangalam,0,IN,1547715600,23,12.61,77.86,28.0,3.6
295,Yerbogachen,76,RU,1547716660,81,61.28,108.01,-18.92,2.94
296,Saint-Georges,0,CA,1547716522,50,46.12,-70.67,-19.77,3.06
297,Havoysund,75,NO,1547715000,73,71.0,24.66,-5.0,8.7
298,Santa Fe,36,AR,1547716661,87,-31.62,-60.7,20.46,4.41
299,Hami,32,CN,1547716662,70,42.84,93.51,-2.12,1.56
300,Ramsar,90,IR,1547715600,93,36.92,50.64,10.0,6.2
301,Roebourne,44,AU,1547716662,27,-20.77,117.15,38.56,3.76
302,Barbate,75,ES,1547715000,81,36.19,-5.92,12.0,3.6
303,Nouadhibou,0,MR,1547716663,79,20.93,-17.03,15.31,8.64
304,Goderich,76,CA,1547716663,86,43.74,-81.71,-8.54,2.56
305,Lichinga,75,MZ,1547715600,65,-13.3,35.25,25.0,2.6
306,San Policarpo,80,PH,1547716664,91,12.18,125.51,25.96,6.16
307,Coihaique,0,CL,1547715600,81,-45.58,-72.07,6.0,1.5
308,Kenora,90,CA,1547715360,70,49.76,-94.48,-18.0,1.26
309,Buncrana,40,GB,1547715000,86,55.14,-7.45,4.0,2.1
310,Gari,64,RU,1547716665,60,59.43,62.35,-3.17,5.16
311,Ayaviri,92,PE,1547716665,94,-14.88,-70.59,2.09,1.36
312,Saint George,0,GR,1547715000,37,39.45,22.34,11.0,2.1
313,El Alto,75,BO,1547715600,93,-16.5,-68.19,6.0,2.1
314,Pisco,0,PE,1547715600,94,-13.71,-76.2,20.0,5.7
315,Lasa,20,CY,1547713800,44,34.92,32.53,15.0,5.1
316,Julfa,75,AZ,1547715600,53,38.95,45.63,10.0,1.0
317,Cockburn Town,68,TC,1547716667,100,21.46,-71.14,25.06,3.29
318,Port Macquarie,0,AU,1547712000,58,-31.43,152.91,28.0,6.7
319,Xining,8,CN,1547716668,18,36.62,101.77,3.56,1.21
320,Gawler,40,AU,1547713800,45,-34.6,138.75,29.0,5.7
321,Eyl,8,SO,1547716668,82,7.98,49.82,26.24,4.54
322,Nynashamn,75,SE,1547715000,86,58.9,17.95,-2.0,5.1
323,Ketchikan,20,US,1547715660,92,55.34,-131.65,6.1,2.1
324,Sucua,20,EC,1547716669,92,-2.46,-78.17,15.94,0.61
325,Wagar,0,US,1547716669,88,31.44,-87.99,2.46,1.06
326,Floriano,0,BR,1547716508,89,-6.77,-43.02,20.31,1.14
327,Neyshabur,0,IR,1547716670,85,36.21,58.79,15.24,3.81
328,Salalah,0,OM,1547715000,47,17.01,54.1,27.0,3.6
329,Cherskiy,76,RU,1547716671,78,68.75,161.3,-31.89,1.36
330,Xingyi,0,CN,1547716671,72,24.19,102.82,13.49,1.89
331,Vyartsilya,80,RU,1547716671,90,62.18,30.69,-9.54,3.36
332,Caxito,0,BR,1547715600,94,-22.65,-42.51,24.0,2.6
333,Voi,20,KE,1547716672,70,-3.4,38.57,27.99,1.69
334,Mayang Imphal,20,IN,1547715600,33,24.62,93.88,23.0,2.1
335,Acapulco,75,MX,1547714700,78,16.86,-99.88,24.0,1.69
336,Manokwari,56,ID,1547716673,100,-0.87,134.08,26.59,3.46
337,Moree,0,AU,1547712000,19,-29.46,149.84,38.0,5.7
338,Dali,0,CN,1547716674,54,25.6,100.24,14.11,0.94
339,La Ronge,5,CA,1547712000,75,55.1,-105.3,-26.0,3.6
340,Christchurch,80,NZ,1547715600,88,-43.53,172.64,17.0,0.5
341,Krasnooktyabrskiy,0,RU,1547715600,64,44.93,38.37,3.0,3.0
342,Saint Anthony,90,US,1547715360,88,43.97,-111.68,0.0,2.26
343,Kargasok,80,RU,1547716675,80,59.06,80.87,-9.02,1.56
344,Tabuk,0,PH,1547716675,61,17.41,121.44,22.31,1.29
345,Kutum,0,SD,1547716676,40,14.2,24.66,18.34,4.16
346,Road Town,1,VG,1547715180,84,18.42,-64.62,23.3,3.1
347,Comodoro Rivadavia,0,AR,1547715600,43,-45.87,-67.48,13.0,2.1
348,Solano,0,PH,1547716677,62,16.52,121.18,22.49,1.29
349,Leningradskiy,76,RU,1547716677,97,69.38,178.42,-20.67,8.21
350,Dubti,0,ET,1547716677,37,11.74,41.09,28.19,1.81
351,Tilichiki,0,RU,1547716678,62,60.47,166.1,-36.97,1.39
352,Melfi,0,IT,1547711700,70,41.0,15.66,8.0,2.1
353,Plauen,90,DE,1547715000,93,50.5,12.13,5.0,7.2
354,Peringat,75,MY,1547712000,78,5.99,102.3,28.0,5.7
355,Half Moon Bay,20,US,1547716500,67,37.46,-122.43,15.0,8.7
356,Senno,90,RU,1547715600,86,57.76,27.95,3.0,7.0
357,Lixourion,40,GR,1547715000,62,38.2,20.43,13.0,2.51
358,Rosarito,88,CO,1547716680,100,4.91,-75.23,15.79,0.76
359,Ribeira Grande,40,PT,1547713800,87,38.52,-28.7,16.0,2.6
360,Conceicao da Barra,48,BR,1547716681,89,-18.59,-39.73,26.94,4.21
361,Atambua,92,ID,1547716681,100,-9.11,124.89,24.19,3.54
362,Paredon,24,BO,1547716681,87,-18.93,-65.16,10.29,1.01
363,Tazovskiy,56,RU,1547716682,68,67.47,78.7,-23.04,4.86
364,Alofi,92,NU,1547715600,88,-19.06,-169.92,27.0,3.6
365,Dingle,48,PH,1547716682,63,11.0,122.67,27.59,6.91
366,Kinango,40,KE,1547712000,59,-4.13,39.32,33.0,3.1
367,Taltal,32,CL,1547716683,100,-25.41,-70.49,11.04,0.34
368,Mendi,0,ET,1547716683,26,9.8,35.1,29.09,2.04
369,Pangai,12,TO,1547716684,99,-19.8,-174.35,27.99,2.69
370,Foggia,0,IT,1547711700,70,41.46,15.54,8.0,2.1
371,Loa Janan,68,ID,1547716684,85,-0.58,117.09,29.11,1.29
372,Dakoro,0,NE,1547716685,30,14.51,6.76,20.04,4.94
373,Ambatofinandrahana,20,MG,1547716685,73,-20.55,46.8,25.19,1.61
374,Vila Franca do Campo,20,PT,1547713800,81,37.72,-25.43,9.0,1.5
375,Kiunga,92,PG,1547716685,93,-6.12,141.3,24.39,0.94
376,Tamuin,92,MX,1547716686,98,21.98,-98.75,16.34,1.14
377,Broken Hill,75,AU,1547712000,10,-31.97,141.45,43.0,3.1
378,Hasaki,20,JP,1547715600,69,35.73,140.83,8.0,1.5
379,Vardo,90,US,1547715600,61,39.62,-77.74,2.0,2.1
380,Polunochnoye,92,RU,1547716688,89,60.87,60.43,-1.69,5.56
381,Katsuura,75,JP,1547715600,56,33.93,134.5,9.0,4.1
382,Teguldet,80,RU,1547716688,74,57.31,88.17,-10.89,2.34
383,Acajutla,0,SV,1547716689,57,13.59,-89.83,25.09,4.76
384,Bantou,20,CN,1547716689,77,26.22,117.49,9.56,0.99
385,Bingol,90,TR,1547715000,79,38.88,40.49,0.0,2.1
386,Cabedelo,20,BR,1547715600,100,-6.97,-34.84,24.0,2.1
387,Lishu,0,CN,1547716690,28,43.31,124.32,-12.69,2.16
388,Kasongo-Lunda,64,CD,1547716690,89,-6.48,16.82,23.04,1.44
389,San Patricio,24,PY,1547716691,75,-26.98,-56.83,27.39,2.46
390,Tulum,20,MX,1547714640,77,20.21,-87.46,21.0,2.1
391,Broome,20,GB,1547715360,80,52.47,1.45,2.0,5.7
392,Ambanja,75,MG,1547715600,70,-13.68,48.45,31.0,2.1
393,Wanning,0,AT,1547715000,95,48.64,13.53,0.0,0.5
394,Lugazi,20,UG,1547713800,73,0.37,32.94,25.0,1.5
395,Bilma,0,NE,1547716693,39,18.69,12.92,15.94,2.29
396,Noyabrsk,80,RU,1547716693,85,63.2,75.45,-10.04,7.36
397,Mayo,90,CA,1547712000,85,63.59,-135.9,-8.0,1.0
398,Neuquen,0,AR,1547715600,62,-38.95,-68.06,13.0,2.6
399,Chingola,88,ZM,1547716694,98,-12.55,27.86,21.44,2.34
400,Roald,90,NO,1547715000,92,62.58,6.12,-1.0,1.0
401,Muros,40,ES,1547713800,100,42.77,-9.06,5.0,1.0
402,Siverek,0,TR,1547715000,74,37.75,39.32,2.0,5.7
403,Novyy Urengoy,80,RU,1547716695,82,66.08,76.63,-15.82,7.31
404,Alta Floresta,80,BR,1547716695,91,-9.87,-56.08,24.21,0.99
405,Nanchang,0,CN,1547716696,84,28.68,115.89,8.56,1.34
406,Araouane,0,ML,1547716697,20,18.9,-3.53,16.74,3.94
407,Souillac,0,FR,1547713800,93,45.6,-0.6,5.0,2.1
408,Gazanjyk,0,TM,1547716697,77,39.24,55.52,14.59,1.74
409,Qostanay,90,KZ,1547713800,92,53.17,63.58,-10.0,3.0
410,Thrissur,20,IN,1547715600,33,10.53,76.21,33.0,2.6
411,Yumen,88,CN,1547716698,85,40.29,97.04,-5.72,6.74
412,Champasak,75,LA,1547715600,40,14.89,105.88,31.0,4.1
413,Marigot,80,HT,1547716698,100,18.23,-72.32,24.29,1.79
414,Scarborough,8,GB,1547715000,64,54.28,-0.41,1.0,6.7
415,Sosnovo-Ozerskoye,12,RU,1547716699,73,52.53,111.54,-18.87,1.24
416,Nakonde,44,ZM,1547716699,66,-9.33,32.75,26.31,2.04
417,Blagoveshchenka,48,RU,1547716700,93,52.83,79.87,-13.67,1.69
418,Amahai,92,ID,1547716700,100,-3.31,129.0,24.61,5.76
419,Milyutinskaya,24,RU,1547716700,94,48.63,41.67,-6.87,2.14
420,Halifax,40,CA,1547713320,68,44.65,-63.58,-3.0,6.7
421,Dikson,44,RU,1547716701,86,73.51,80.55,-16.39,4.74
422,Kholmskaya,0,RU,1547715600,64,44.85,38.39,3.0,3.0
423,Mglin,92,RU,1547716701,92,53.06,32.85,-3.64,9.49
424,Cardston,90,CA,1547714880,92,49.2,-113.32,-7.0,2.6
425,Mount Gambier,40,AU,1547712000,60,-37.83,140.78,24.0,1.5
426,Jishou,0,CN,1547716702,79,28.26,109.7,8.71,1.69
427,Faya,0,SA,1547715600,37,18.39,42.45,25.0,8.7
428,Grand Island,90,US,1547716140,95,40.92,-98.34,-1.1,1.74
429,Karpathos,20,GR,1547715000,54,35.51,27.21,15.0,5.7
430,Homer,40,US,1547715180,70,59.64,-151.54,6.1,4.6
431,Constitucion,32,MX,1547716704,82,23.99,-104.67,5.39,1.16
432,Dreux,75,FR,1547713800,86,48.74,1.37,6.0,6.2
433,Miramar,0,CR,1547715600,60,10.09,-84.73,20.0,8.7
434,Gorham,1,US,1547715360,52,43.68,-70.44,-10.0,2.6
435,Moose Factory,1,CA,1547712000,74,51.26,-80.61,-31.0,4.1
436,Ancud,0,CL,1547715600,87,-41.87,-73.83,6.0,2.1
437,Sao Filipe,88,CV,1547716706,96,14.9,-24.5,22.44,7.24
438,Murray Bridge,92,AU,1547716706,73,-35.12,139.28,23.99,5.31
439,Dakar,0,SN,1547713800,88,14.69,-17.45,20.0,7.2
440,Hirekerur,0,IN,1547716707,49,14.47,75.38,28.74,4.09
441,Beringovskiy,8,RU,1547716707,100,63.05,179.32,-24.32,4.19
442,Winneba,8,GH,1547712000,88,5.35,-0.62,27.0,5.1
443,Dalbandin,8,PK,1547716708,78,28.9,64.41,21.34,1.96
444,Kajaani,90,FI,1547715000,83,64.22,27.73,-20.0,1.0
445,Bahia Blanca,0,AR,1547716709,91,-38.72,-62.27,14.81,4.41
446,Dabat,0,ET,1547716709,20,12.98,37.77,26.54,1.16
447,Egvekinot,88,RU,1547716709,84,66.32,-179.17,-19.62,1.36
448,Mangit,0,UZ,1547715600,93,40.6,70.96,2.0,2.1
449,Hue,75,VN,1547715600,100,16.47,107.58,19.0,4.1
450,Namibe,40,AO,1547712000,69,-15.19,12.15,24.0,2.1
451,Viedma,0,AR,1547716711,67,-40.81,-62.99,12.46,4.16
452,Aykhal,32,RU,1547716711,28,65.95,111.51,-29.32,2.41
453,Astakos,20,GR,1547715000,70,38.54,21.08,13.0,4.1
454,Ardabil,75,IR,1547715600,56,38.25,48.3,7.0,8.7
455,Plover,90,US,1547715300,85,44.46,-89.54,-8.6,2.1
456,Astana,40,KZ,1547715600,100,51.13,71.43,-9.0,3.0
457,Nanakuli,40,US,1547715420,86,21.39,-158.15,25.6,3.6
458,Playas,88,EC,1547716714,100,-2.64,-80.39,23.04,0.46
459,Mahajanga,40,MG,1547715600,70,-15.72,46.32,31.0,4.1
460,Batemans Bay,92,AU,1547716714,92,-35.71,150.18,22.49,2.34
461,Maracacume,0,BR,1547716715,93,-2.04,-45.96,21.74,1.61
462,Timra,75,SE,1547715000,85,62.49,17.33,-7.0,3.1
463,Chadan,64,RU,1547716715,75,51.29,91.58,-13.39,0.69
464,Rincon,1,US,1547716500,93,32.3,-81.24,3.0,1.21
465,Camopi,92,GF,1547716716,99,3.17,-52.33,22.94,1.01
466,Grand-Santi,92,GF,1547716716,98,4.27,-54.38,23.21,1.14
467,Mackay,90,CA,1547712000,92,53.65,-115.58,-15.0,4.1
468,Ayia Paraskevi,0,GR,1547715000,100,40.48,23.05,5.0,2.1
469,Maceio,40,BR,1547715600,94,-9.67,-35.74,24.0,1.0
470,Barabinsk,56,RU,1547716717,85,55.35,78.35,-13.64,3.04
471,Gigmoto,12,PH,1547716718,96,13.78,124.39,26.19,5.41
472,Bowen,64,AU,1547715600,74,-20.01,148.25,26.0,4.6
473,Kabalo,12,CD,1547716718,84,-6.05,26.92,27.21,2.26
474,Gurkovo,0,BG,1547713800,79,42.98,23.69,-2.0,1.5
475,Aswan,0,EG,1547716707,59,24.09,32.9,12.84,4.04
476,Pozo Colorado,0,PY,1547716719,60,-23.49,-58.8,28.84,5.86
477,Vila Velha,20,BR,1547715600,94,-3.71,-38.6,25.0,1.5
478,Imeni Poliny Osipenko,64,RU,1547716720,61,52.42,136.49,-12.29,9.54
479,Khorixas,36,NA,1547716720,30,-20.37,14.96,25.84,2.29
480,Menongue,92,AO,1547716720,76,-14.66,17.68,19.81,1.49
481,Henties Bay,20,NA,1547716721,92,-22.12,14.28,20.74,1.56
482,Latehar,0,IN,1547716721,41,23.74,84.5,22.46,3.26
483,Novobiryusinskiy,88,RU,1547716721,83,56.96,97.71,-11.62,2.46
484,Manuk Mangkaw,92,PH,1547716722,100,4.8,119.85,26.99,2.94
485,Tara,75,JP,1547715600,95,33.0,130.15,7.0,4.1
486,Esna,0,RO,1547716722,100,45.2,27.57,-0.54,3.04
487,Outlook,76,CA,1547716723,71,51.48,-107.04,-19.39,3.51
488,Porto Novo,40,BR,1547715600,100,-23.68,-45.44,21.0,1.16
489,Watrous,76,CA,1547716456,84,51.67,-105.46,-21.37,3.04
490,Hibbing,1,US,1547715360,80,47.43,-92.94,-20.0,1.26
491,Bathurst,8,AU,1547716724,63,-33.42,149.58,27.69,1.59
492,Blagoyevo,88,RU,1547716724,74,63.37,47.92,-7.79,2.86
493,Keti Bandar,0,PK,1547716725,86,24.14,67.45,24.29,4.61
494,Sisimiut,48,GL,1547716725,100,66.94,-53.67,-20.47,1.14
495,Tadine,64,NC,1547716725,97,-21.55,167.88,25.19,7.76
496,Bom Jardim,75,BR,1547712000,88,-7.8,-35.59,23.0,2.6
497,Harper,90,US,1547715300,93,30.3,-99.24,11.6,2.6
498,Qitaihe,0,CN,1547716726,39,45.77,131.01,-20.39,5.34
499,Zhangjiakou,0,CN,1547716727,28,40.77,114.88,-6.72,1.21
500,Boralday,75,KZ,1547715600,100,43.36,76.86,1.0,0.71
501,Pemberton,0,AU,1547716727,49,-34.44,116.03,22.21,6.41
502,Dunedin,92,NZ,1547716407,100,-45.87,170.5,12.89,1.91
503,Port Hedland,20,AU,1547713800,59,-20.31,118.58,33.0,8.2
504,Lima,75,PE,1547712000,88,-12.06,-77.04,21.0,2.6
505,Gat,0,SN,1547715600,82,14.69,-16.54,20.0,6.7
506,San Jose,8,PH,1547716729,61,15.79,120.99,26.44,1.21
507,Bachaquero,48,VE,1547716729,100,9.96,-71.12,25.34,2.39
508,Danielskuil,0,ZA,1547716730,17,-28.19,23.54,32.79,1.36
509,Magadan,24,RU,1547716730,100,59.56,150.8,-19.67,9.04
510,Baruun-Urt,0,MN,1547716730,46,46.68,113.28,-10.17,3.61
511,Batagay,0,RU,1547716731,0,67.65,134.64,-57.19,1.26
512,Makakilo City,90,US,1547715420,64,21.35,-158.09,25.6,6.7
513,Vangaindrano,44,MG,1547716731,79,-23.35,47.6,30.31,2.86
514,Kahului,75,US,1547715360,58,20.89,-156.47,24.4,6.2
515,Aksarka,80,RU,1547716732,85,66.56,67.8,-10.87,6.34
516,Vikindu,40,TZ,1547712000,70,-6.98,39.3,32.0,6.7
517,Whitehorse,90,CA,1547712000,79,60.72,-135.06,-6.0,9.3
518,Vila,90,IT,1547715000,93,45.18,8.4,6.0,1.0
519,Strezhevoy,40,RU,1547715600,85,60.73,77.6,-9.0,5.0
520,The Valley,40,AI,1547712000,88,18.22,-63.06,23.0,4.1
521,Zyryanka,12,RU,1547716734,0,65.73,150.89,-43.94,1.11
522,Aasiaat,68,GL,1547716734,100,68.71,-52.87,-11.89,4.89
523,Kirakira,64,SB,1547716734,100,-10.46,161.92,28.69,2.61
524,Huadian,0,CN,1547716735,44,42.97,126.75,-18.29,1.16
525,Durazno,0,UY,1547716735,85,-33.38,-56.52,16.71,4.21
526,Kampong Chhnang,88,KH,1547716514,51,12.25,104.67,30.49,2.86
527,Kiama,40,AU,1547712000,62,-34.67,150.86,29.0,5.7
528,Chapais,20,CA,1547712000,73,49.78,-74.86,-35.0,3.1
529,Caconde,76,BR,1547716736,88,-21.53,-46.64,20.46,1.46
530,Lata,12,IN,1547716736,74,30.78,78.62,8.71,0.81
531,Port Moresby,75,PG,1547712000,70,-9.47,147.16,30.0,5.1
532,Koszalin,92,PL,1547716737,98,54.19,16.18,3.39,7.51
533,Flinders,40,AU,1547712000,62,-34.58,150.85,29.0,5.7
534,Tiarei,40,PF,1547715600,78,-17.53,-149.33,27.0,1.0
535,Luau,92,CD,1547716738,98,-10.7,22.23,20.11,1.61
536,Evensk,0,RU,1547716738,100,61.92,159.24,-22.04,8.36
537,San Carlos de Bariloche,0,AR,1547715600,80,-41.13,-71.31,1.0,2.1
538,Ucluelet,92,CA,1547716739,89,48.94,-125.55,5.06,1.96
539,Vidim,40,CZ,1547713800,84,50.47,14.53,5.0,9.3
540,Okha,80,RU,1547716740,90,53.59,142.95,-13.64,1.74
541,Dekernes,40,EG,1547712000,76,31.09,31.59,10.0,4.6
542,Damaturu,0,NG,1547716740,23,11.75,11.96,23.36,3.96
543,Chimore,20,BO,1547716740,99,-16.98,-65.13,21.19,0.94
544,Nelson,88,CA,1547716741,93,49.49,-117.29,-7.29,0.89
545,Luanda,75,AO,1547712000,62,-8.83,13.24,30.0,2.1
546,Aksu,40,KZ,1547715600,92,52.04,76.93,-15.0,2.0
547,Matelandia,0,BR,1547715600,94,-25.24,-54.0,24.0,2.1
548,Komsomolskiy,92,RU,1547716742,89,67.55,63.78,-10.92,6.79
549,Karratha,44,AU,1547716742,27,-20.74,116.85,38.56,3.76
550,Podgorenskiy,8,RU,1547716685,92,50.4,39.64,-6.77,3.24
551,Gewane,0,ET,1547716743,35,10.16,40.66,29.09,1.89
552,Puerto Ayacucho,56,CO,1547716743,87,5.66,-67.63,23.71,2.36
553,Korcula,20,HR,1547715600,100,42.96,17.14,5.0,1.0
554,Anuradhapura,0,LK,1547716744,54,8.34,80.41,30.54,6.16
555,Tezpur,0,IN,1547716744,65,26.62,92.79,22.71,1.74
556,Victor Harbor,40,AU,1547713800,45,-35.55,138.62,29.0,5.7
557,Bereda,40,ES,1547713800,100,43.27,-7.54,5.0,2.1
558,Avera,1,US,1547716500,97,33.19,-82.53,1.0,1.11
559,Ushtobe,0,KZ,1547716745,88,45.25,77.98,2.59,2.29
560,Egersund,20,NO,1547715000,74,58.45,6.0,1.0,7.7
561,General Roca,0,AR,1547715600,62,-39.03,-67.58,13.0,2.6
